[{"name":"Tokyo","latitude":35.6897,"longitude":139.692,"country":"JP","population":37977000,"region":"N/A","is_capital":true},{"name":"Jakarta","latitude":-6.2146,"longitude":106.845,"country":"ID","population":34540000,"region":"Java","is_capital":true},{"name":"Delhi","latitude":28.66,"longitude":77.23,"country":"IN","population":29617000,"region":"Delhi","is_capital":false},{"name":"Mumbai","latitude":18.9667,"longitude":72.8333,"country":"IN","population":23355000,"region":"Maharashtra","is_capital":false},{"name":"Manila","latitude":14.5958,"longitude":120.977,"country":"PH","population":23088000,"region":"Metro Manila","is_capital":true},{"name":"Shanghai","latitude":31.1667,"longitude":121.467,"country":"CN","population":22120000,"region":"Shanghai","is_capital":false},{"name":"Sao Paulo","latitude":-23.5504,"longitude":-46.6339,"country":"BR","population":22046000,"region":"São Paulo","is_capital":false},{"name":"Seoul","latitude":37.5833,"longitude":127,"country":"KR","population":21794000,"region":"N/A","is_capital":true},{"name":"Mexico City","latitude":19.4333,"longitude":-99.1333,"country":"MX","population":20996000,"region":"N/A","is_capital":true},{"name":"Guangzhou","latitude":23.1288,"longitude":113.259,"country":"CN","population":20902000,"region":"Guangdong Province","is_capital":false},{"name":"Beijing","latitude":39.905,"longitude":116.391,"country":"CN","population":19433000,"region":"Beijing","is_capital":true},{"name":"Cairo","latitude":30.0561,"longitude":31.2394,"country":"EG","population":19372000,"region":"Cairo","is_capital":true},{"name":"New York","latitude":40.6943,"longitude":-73.9249,"country":"US","population":18713220,"region":"New York","is_capital":false},{"name":"Kolkata","latitude":22.5411,"longitude":88.3378,"country":"IN","population":17560000,"region":"West Bengal","is_capital":false},{"name":"Moscow","latitude":55.7558,"longitude":37.6178,"country":"RU","population":17125000,"region":"Moscow","is_capital":true},{"name":"Bangkok","latitude":13.75,"longitude":100.517,"country":"TH","population":17066000,"region":"N/A","is_capital":true},{"name":"Buenos Aires","latitude":-34.5997,"longitude":-58.3819,"country":"AR","population":16157000,"region":"Autonomous City of Buenos Aires","is_capital":true},{"name":"Shenzhen","latitude":22.535,"longitude":114.054,"country":"CN","population":15929000,"region":"Guangdong Province","is_capital":false},{"name":"Dhaka","latitude":23.7161,"longitude":90.3961,"country":"BD","population":15443000,"region":"Dhaka Division","is_capital":true},{"name":"Lagos","latitude":6.45,"longitude":3.4,"country":"NG","population":15279000,"region":"Lagos State","is_capital":false},{"name":"Istanbul","latitude":41.01,"longitude":28.9603,"country":"TR","population":15154000,"region":"Marmara Region","is_capital":false},{"name":"Osaka","latitude":34.6936,"longitude":135.502,"country":"JP","population":14977000,"region":"N/A","is_capital":false},{"name":"Karachi","latitude":24.86,"longitude":67.01,"country":"PK","population":14835000,"region":"Sindh","is_capital":false},{"name":"Bangalore","latitude":12.9699,"longitude":77.598,"country":"IN","population":13707000,"region":"Karnataka","is_capital":false},{"name":"Tehran","latitude":35.7,"longitude":51.4167,"country":"IR","population":13633000,"region":"N/A","is_capital":true},{"name":"Kinshasa","latitude":-4.3317,"longitude":15.3139,"country":"CD","population":13528000,"region":"Kinshasa","is_capital":true},{"name":"Ho Chi Minh City","latitude":10.8167,"longitude":106.633,"country":"VN","population":13312000,"region":"N/A","is_capital":false},{"name":"Los Angeles","latitude":34.1139,"longitude":-118.407,"country":"US","population":12750807,"region":"California","is_capital":false},{"name":"Rio De Janeiro","latitude":-22.9083,"longitude":-43.1964,"country":"BR","population":12272000,"region":"Rio de Janeiro","is_capital":false},{"name":"Nanyang","latitude":32.9987,"longitude":112.529,"country":"CN","population":12010000,"region":"Henan","is_capital":false},{"name":"Chennai","latitude":13.0825,"longitude":80.275,"country":"IN","population":11324000,"region":"Tamil Nadu","is_capital":false},{"name":"Chengdu","latitude":30.6636,"longitude":104.067,"country":"CN","population":11309000,"region":"Sichuan","is_capital":false},{"name":"Lahore","latitude":31.5497,"longitude":74.3436,"country":"PK","population":11021000,"region":"Punjab","is_capital":false},{"name":"Paris","latitude":48.8566,"longitude":2.3522,"country":"FR","population":11020000,"region":"Ile-de-France","is_capital":true},{"name":"London","latitude":51.5072,"longitude":-0.1275,"country":"GB","population":10979000,"region":"England","is_capital":true},{"name":"Linyi","latitude":35.0606,"longitude":118.342,"country":"CN","population":10820000,"region":"Shandong","is_capital":false},{"name":"Tianjin","latitude":39.1467,"longitude":117.206,"country":"CN","population":10800000,"region":"Tianjin","is_capital":false},{"name":"Shijiazhuang","latitude":38.0422,"longitude":114.509,"country":"CN","population":10784600,"region":"Hebei","is_capital":false},{"name":"Baoding","latitude":38.8671,"longitude":115.484,"country":"CN","population":10700000,"region":"Hebei","is_capital":false},{"name":"Zhoukou","latitude":33.625,"longitude":114.642,"country":"CN","population":9901000,"region":"Henan","is_capital":false},{"name":"Lima","latitude":-12.05,"longitude":-77.0333,"country":"PE","population":9848000,"region":"Lima","is_capital":true},{"name":"Hyderabad","latitude":17.3667,"longitude":78.4667,"country":"IN","population":9746000,"region":"Telangana","is_capital":false},{"name":"Bogota","latitude":4.6126,"longitude":-74.0705,"country":"CO","population":9464000,"region":"RAP (Especial) Central","is_capital":true},{"name":"Weifang","latitude":36.7167,"longitude":119.1,"country":"CN","population":9373000,"region":"Shandong","is_capital":false},{"name":"Nagoya","latitude":35.1167,"longitude":136.933,"country":"JP","population":9113000,"region":"N/A","is_capital":false},{"name":"Wuhan","latitude":30.5872,"longitude":114.288,"country":"CN","population":8962000,"region":"Hubei","is_capital":false},{"name":"Heze","latitude":35.2333,"longitude":115.433,"country":"CN","population":8750000,"region":"Shandong","is_capital":false},{"name":"Ganzhou","latitude":25.8292,"longitude":114.934,"country":"CN","population":8677600,"region":"Jiangxi","is_capital":false},{"name":"Tongshan","latitude":34.261,"longitude":117.186,"country":"CN","population":8669000,"region":"Jiangsu","is_capital":false},{"name":"Chicago","latitude":41.8373,"longitude":-87.6862,"country":"US","population":8604203,"region":"Illinois","is_capital":false},{"name":"Handan","latitude":36.6116,"longitude":114.489,"country":"CN","population":8499000,"region":"Hebei","is_capital":false},{"name":"Luanda","latitude":-8.8383,"longitude":13.2344,"country":"AO","population":8417000,"region":"Luanda Province","is_capital":true},{"name":"Fuyang","latitude":32.8986,"longitude":115.804,"country":"CN","population":8360000,"region":"Anhui","is_capital":false},{"name":"Kuala Lumpur","latitude":3.1478,"longitude":101.695,"country":"MY","population":8285000,"region":"N/A","is_capital":true},{"name":"Jining","latitude":35.4,"longitude":116.567,"country":"CN","population":8023000,"region":"Shandong","is_capital":false},{"name":"Dongguan","latitude":23.0475,"longitude":113.749,"country":"CN","population":7981000,"region":"Guangdong Province","is_capital":false},{"name":"Hanoi","latitude":21.0245,"longitude":105.841,"country":"VN","population":7785000,"region":"N/A","is_capital":true},{"name":"Pune","latitude":18.5196,"longitude":73.8553,"country":"IN","population":7764000,"region":"Maharashtra","is_capital":false},{"name":"Chongqing","latitude":29.55,"longitude":106.507,"country":"CN","population":7739000,"region":"Chongqing","is_capital":false},{"name":"Changchun","latitude":43.9,"longitude":125.2,"country":"CN","population":7674439,"region":"Jilin","is_capital":false},{"name":"Zhumadian","latitude":32.9773,"longitude":114.025,"country":"CN","population":7640000,"region":"Henan","is_capital":false},{"name":"Ningbo","latitude":29.875,"longitude":121.549,"country":"CN","population":7639000,"region":"Zhejiang","is_capital":false},{"name":"Onitsha","latitude":6.1667,"longitude":6.7833,"country":"NG","population":7635000,"region":"Anambra State","is_capital":false},{"name":"Nanjing","latitude":32.05,"longitude":118.767,"country":"CN","population":7496000,"region":"Jiangsu","is_capital":false},{"name":"Hefei","latitude":31.8639,"longitude":117.281,"country":"CN","population":7457027,"region":"Anhui","is_capital":false},{"name":"Ahmadabad","latitude":23.03,"longitude":72.58,"country":"IN","population":7410000,"region":"Gujarat","is_capital":false},{"name":"Hong Kong","latitude":22.305,"longitude":114.185,"country":"HK","population":7347000,"region":"Hong Kong","is_capital":false},{"name":"Khartoum","latitude":15.6031,"longitude":32.5265,"country":"SD","population":7282000,"region":"Khartoum State","is_capital":true},{"name":"Yancheng","latitude":33.3936,"longitude":120.134,"country":"CN","population":7260240,"region":"Jiangsu","is_capital":false},{"name":"Foshan","latitude":23.0292,"longitude":113.106,"country":"CN","population":7194311,"region":"Guangdong Province","is_capital":false},{"name":"Nanning","latitude":22.8192,"longitude":108.315,"country":"CN","population":7153300,"region":"Guangxi","is_capital":false},{"name":"Hengyang","latitude":26.8968,"longitude":112.586,"country":"CN","population":7148344,"region":"Hunan","is_capital":false},{"name":"Xi'an","latitude":34.2667,"longitude":108.9,"country":"CN","population":7135000,"region":"Shaanxi","is_capital":false},{"name":"Shenyang","latitude":41.8039,"longitude":123.426,"country":"CN","population":7105000,"region":"Liaoning","is_capital":false},{"name":"Tangshan","latitude":39.6292,"longitude":118.174,"country":"CN","population":7100000,"region":"Hebei","is_capital":false},{"name":"Shaoyang","latitude":27.2418,"longitude":111.473,"country":"CN","population":7071000,"region":"Hunan","is_capital":false},{"name":"Changsha","latitude":28.1987,"longitude":112.971,"country":"CN","population":7044118,"region":"Hunan","is_capital":false},{"name":"Santiago","latitude":-33.45,"longitude":-70.6667,"country":"CL","population":7007000,"region":"Santiago Metropolitan Region","is_capital":true},{"name":"Zhengzhou","latitude":34.7492,"longitude":113.66,"country":"CN","population":7005000,"region":"Henan","is_capital":false},{"name":"Zhanjiang","latitude":21.1967,"longitude":110.403,"country":"CN","population":6900000,"region":"Guangdong Province","is_capital":false},{"name":"Riyadh","latitude":24.65,"longitude":46.71,"country":"SA","population":6881000,"region":"Riyadh Region","is_capital":true},{"name":"Cangzhou","latitude":38.3037,"longitude":116.845,"country":"CN","population":6800000,"region":"Hebei","is_capital":false},{"name":"Dar Es Salaam","latitude":-6.8,"longitude":39.2833,"country":"TZ","population":6698000,"region":"Coastal Zone","is_capital":true},{"name":"Huanggang","latitude":30.45,"longitude":114.875,"country":"CN","population":6667000,"region":"Hubei","is_capital":false},{"name":"Xinyang","latitude":32.1264,"longitude":114.067,"country":"CN","population":6634000,"region":"Henan","is_capital":false},{"name":"Shangrao","latitude":28.4419,"longitude":117.963,"country":"CN","population":6579714,"region":"Jiangxi","is_capital":false},{"name":"Luoyang","latitude":34.6587,"longitude":112.424,"country":"CN","population":6549941,"region":"Henan","is_capital":false},{"name":"Bijie","latitude":27.3019,"longitude":105.286,"country":"CN","population":6537498,"region":"Guizhou","is_capital":false},{"name":"Yantai","latitude":37.3997,"longitude":121.266,"country":"CN","population":6516900,"region":"Shandong","is_capital":false},{"name":"Quanzhou","latitude":24.9139,"longitude":118.586,"country":"CN","population":6480000,"region":"Fujian","is_capital":false},{"name":"Hangzhou","latitude":30.25,"longitude":120.168,"country":"CN","population":6446000,"region":"Zhejiang","is_capital":false},{"name":"Miami","latitude":25.7839,"longitude":-80.2102,"country":"US","population":6445545,"region":"Florida","is_capital":false},{"name":"Kunming","latitude":25.0433,"longitude":102.706,"country":"CN","population":6250000,"region":"Yunnan","is_capital":false},{"name":"Nanchong","latitude":30.7991,"longitude":106.078,"country":"CN","population":6183000,"region":"Sichuan","is_capital":false},{"name":"Zunyi","latitude":27.705,"longitude":106.934,"country":"CN","population":6127009,"region":"Guizhou","is_capital":false},{"name":"Lu'an","latitude":31.7542,"longitude":116.508,"country":"CN","population":6090000,"region":"Anhui","is_capital":false},{"name":"Yichun","latitude":27.8041,"longitude":114.383,"country":"CN","population":6048700,"region":"Jiangxi","is_capital":false},{"name":"Taizhou","latitude":28.6583,"longitude":121.422,"country":"CN","population":5968838,"region":"Zhejiang","is_capital":false},{"name":"Liaocheng","latitude":36.45,"longitude":115.983,"country":"CN","population":5955300,"region":"Shandong","is_capital":false},{"name":"Qujing","latitude":25.5102,"longitude":103.803,"country":"CN","population":5855055,"region":"Yunnan","is_capital":false},{"name":"Xiangyang","latitude":32.0654,"longitude":112.153,"country":"CN","population":5844000,"region":"Hubei","is_capital":false},{"name":"Surat","latitude":21.17,"longitude":72.83,"country":"IN","population":5807000,"region":"Gujarat","is_capital":false},{"name":"Baghdad","latitude":33.35,"longitude":44.4167,"country":"IQ","population":5796000,"region":"Baghdad Governorate","is_capital":true},{"name":"Qingdao","latitude":36.1167,"longitude":120.4,"country":"CN","population":5775000,"region":"Shandong","is_capital":false},{"name":"Singapore","latitude":1.3,"longitude":103.8,"country":"SG","population":5745000,"region":"N/A","is_capital":true},{"name":"Dallas","latitude":32.7936,"longitude":-96.7662,"country":"US","population":5743938,"region":"Texas","is_capital":false},{"name":"Changde","latitude":29.0397,"longitude":111.684,"country":"CN","population":5717200,"region":"Hunan","is_capital":false},{"name":"Dazhou","latitude":31.2152,"longitude":107.495,"country":"CN","population":5693000,"region":"Sichuan","is_capital":false},{"name":"Suzhou","latitude":33.6333,"longitude":116.968,"country":"CN","population":5690000,"region":"Anhui","is_capital":false},{"name":"Philadelphia","latitude":40.0077,"longitude":-75.1339,"country":"US","population":5649300,"region":"Pennsylvania","is_capital":false},{"name":"Jieyang","latitude":23.5533,"longitude":116.365,"country":"CN","population":5634000,"region":"Guangdong Province","is_capital":false},{"name":"Nairobi","latitude":-1.2864,"longitude":36.8172,"country":"KE","population":5545000,"region":"Nairobi County","is_capital":true},{"name":"Nangandao","latitude":35.2992,"longitude":113.885,"country":"CN","population":5516000,"region":"Henan","is_capital":false},{"name":"Ankara","latitude":39.93,"longitude":32.85,"country":"TR","population":5503985,"region":"Central Anatolia Region","is_capital":true},{"name":"Tai'an","latitude":36.2001,"longitude":117.081,"country":"CN","population":5499000,"region":"Shandong","is_capital":false},{"name":"Yulin","latitude":22.6293,"longitude":110.151,"country":"CN","population":5487368,"region":"Guangxi","is_capital":false},{"name":"Dezhou","latitude":37.4513,"longitude":116.311,"country":"CN","population":5470000,"region":"Shandong","is_capital":false},{"name":"Houston","latitude":29.7863,"longitude":-95.3889,"country":"US","population":5464251,"region":"Texas","is_capital":false},{"name":"Atlanta","latitude":33.7627,"longitude":-84.4224,"country":"US","population":5449398,"region":"Georgia","is_capital":false},{"name":"Rangoon","latitude":16.8,"longitude":96.15,"country":"MM","population":5430000,"region":"Yangon","is_capital":true},{"name":"Toronto","latitude":43.7417,"longitude":-79.3733,"country":"CA","population":5429524,"region":"Ontario","is_capital":false},{"name":"Suihua","latitude":46.6384,"longitude":126.981,"country":"CN","population":5420000,"region":"Heilongjiang","is_capital":false},{"name":"Washington","latitude":38.9047,"longitude":-77.0163,"country":"US","population":5379184,"region":"District of Columbia","is_capital":true},{"name":"Qiqihar","latitude":47.3398,"longitude":123.951,"country":"CN","population":5367003,"region":"Heilongjiang","is_capital":false},{"name":"Jinhua","latitude":29.1046,"longitude":119.649,"country":"CN","population":5361572,"region":"Zhejiang","is_capital":false},{"name":"Saint Petersburg","latitude":59.95,"longitude":30.3167,"country":"RU","population":5351935,"region":"Saint Petersburg","is_capital":false},{"name":"Shantou","latitude":23.3735,"longitude":116.694,"country":"CN","population":5319028,"region":"Guangdong Province","is_capital":false},{"name":"Sydney","latitude":-33.865,"longitude":151.209,"country":"AU","population":5312163,"region":"New South Wales","is_capital":false},{"name":"Weinan","latitude":34.4996,"longitude":109.468,"country":"CN","population":5300000,"region":"Shaanxi","is_capital":false},{"name":"Suqian","latitude":33.9331,"longitude":118.283,"country":"CN","population":5290000,"region":"Jiangsu","is_capital":false},{"name":"Guadalajara","latitude":20.6767,"longitude":-103.348,"country":"MX","population":5253000,"region":"Jalisco","is_capital":false},{"name":"Suzhou","latitude":31.304,"longitude":120.616,"country":"CN","population":5250000,"region":"Jiangsu","is_capital":false},{"name":"Fuzhou","latitude":26.0769,"longitude":119.292,"country":"CN","population":5245000,"region":"Fujian","is_capital":false},{"name":"Zhaotong","latitude":27.3328,"longitude":103.714,"country":"CN","population":5213521,"region":"Yunnan","is_capital":false},{"name":"Pudong","latitude":31.2231,"longitude":121.54,"country":"CN","population":5187200,"region":"Shanghai","is_capital":false},{"name":"Yongzhou","latitude":26.4515,"longitude":111.595,"country":"CN","population":5180235,"region":"Hunan","is_capital":false},{"name":"Belo Horizonte","latitude":-19.8917,"longitude":-43.9478,"country":"BR","population":5159000,"region":"Minas Gerais","is_capital":false},{"name":"Zhangzhou","latitude":24.5093,"longitude":117.661,"country":"CN","population":5140000,"region":"Fujian","is_capital":false},{"name":"Bozhou","latitude":33.8626,"longitude":115.774,"country":"CN","population":5100000,"region":"Anhui","is_capital":false},{"name":"Melbourne","latitude":-37.8136,"longitude":144.963,"country":"AU","population":5078193,"region":"Victoria","is_capital":false},{"name":"Nanchang","latitude":28.6842,"longitude":115.887,"country":"CN","population":5042565,"region":"Jiangxi","is_capital":false},{"name":"Xianyang","latitude":34.35,"longitude":108.717,"country":"CN","population":5040000,"region":"Shaanxi","is_capital":false},{"name":"Taizhou","latitude":32.4831,"longitude":119.9,"country":"CN","population":5031000,"region":"Jiangsu","is_capital":false},{"name":"Surabaya","latitude":-7.2458,"longitude":112.738,"country":"ID","population":4975000,"region":"East Java","is_capital":false},{"name":"Ji'an","latitude":27.1172,"longitude":114.979,"country":"CN","population":4956600,"region":"Jiangxi","is_capital":false},{"name":"Mianyang","latitude":31.4669,"longitude":104.739,"country":"CN","population":4945000,"region":"Sichuan","is_capital":false},{"name":"Shaoxing","latitude":30,"longitude":120.583,"country":"CN","population":4912239,"region":"Zhejiang","is_capital":false},{"name":"Alexandria","latitude":31.2,"longitude":29.9167,"country":"EG","population":4870000,"region":"Alexandria","is_capital":false},{"name":"Yuncheng","latitude":35.0304,"longitude":110.998,"country":"CN","population":4860000,"region":"Shanxi","is_capital":false},{"name":"Pingdingshan","latitude":33.735,"longitude":113.3,"country":"CN","population":4838000,"region":"Henan","is_capital":false},{"name":"Huai'an","latitude":33.5,"longitude":119.133,"country":"CN","population":4799889,"region":"Jiangsu","is_capital":false},{"name":"Xinpu","latitude":34.5906,"longitude":119.18,"country":"CN","population":4790000,"region":"Jiangsu","is_capital":false},{"name":"Guilin","latitude":25.2667,"longitude":110.283,"country":"CN","population":4747963,"region":"Guangxi","is_capital":false},{"name":"Huaihua","latitude":27.5494,"longitude":109.959,"country":"CN","population":4741948,"region":"Hunan","is_capital":false},{"name":"Jiujiang","latitude":29.7048,"longitude":116.002,"country":"CN","population":4728778,"region":"Jiangxi","is_capital":false},{"name":"Anqing","latitude":30.5,"longitude":117.033,"country":"CN","population":4723000,"region":"Anhui","is_capital":false},{"name":"Boston","latitude":42.3188,"longitude":-71.0846,"country":"US","population":4688346,"region":"Massachusetts","is_capital":false},{"name":"Huanglongsi","latitude":34.7936,"longitude":114.34,"country":"CN","population":4676159,"region":"Henan","is_capital":false},{"name":"Xiaoganzhan","latitude":30.9273,"longitude":113.911,"country":"CN","population":4665000,"region":"Hubei","is_capital":false},{"name":"Changzhou","latitude":31.8122,"longitude":119.969,"country":"CN","population":4592431,"region":"Jiangsu","is_capital":false},{"name":"Barcelona","latitude":41.3825,"longitude":2.1769,"country":"ES","population":4588000,"region":"Catalonia","is_capital":false},{"name":"Chenzhou","latitude":25.7989,"longitude":113.027,"country":"CN","population":4581778,"region":"Hunan","is_capital":false},{"name":"Wuxi","latitude":31.5667,"longitude":120.283,"country":"CN","population":4580000,"region":"Jiangsu","is_capital":false},{"name":"Zibo","latitude":36.7831,"longitude":118.05,"country":"CN","population":4530597,"region":"Shandong","is_capital":false},{"name":"Jiaxing","latitude":30.7522,"longitude":120.75,"country":"CN","population":4501657,"region":"Zhejiang","is_capital":false},{"name":"Dalian","latitude":38.9131,"longitude":121.61,"country":"CN","population":4480000,"region":"Liaoning","is_capital":false},{"name":"Harbin","latitude":45.75,"longitude":126.633,"country":"CN","population":4458000,"region":"Heilongjiang","is_capital":false},{"name":"Yibin","latitude":28.7596,"longitude":104.64,"country":"CN","population":4456000,"region":"Sichuan","is_capital":false},{"name":"Jiangmen","latitude":22.5833,"longitude":113.083,"country":"CN","population":4448871,"region":"Guangdong Province","is_capital":false},{"name":"Johannesburg","latitude":-26.2044,"longitude":28.0416,"country":"ZA","population":4434827,"region":"Gauteng","is_capital":false},{"name":"Meizhou","latitude":24.2998,"longitude":116.119,"country":"CN","population":4378800,"region":"Guangdong Province","is_capital":false},{"name":"Chifeng","latitude":42.2663,"longitude":118.922,"country":"CN","population":4376600,"region":"Inner Mongolia","is_capital":false},{"name":"Casablanca","latitude":33.5992,"longitude":-7.62,"country":"MA","population":4370000,"region":"Casablanca-Settat","is_capital":false},{"name":"Guiyang","latitude":26.5794,"longitude":106.708,"country":"CN","population":4365000,"region":"Guizhou","is_capital":false},{"name":"Langfang","latitude":39.5196,"longitude":116.701,"country":"CN","population":4358839,"region":"Hebei","is_capital":false},{"name":"Zhangjiakou","latitude":40.8108,"longitude":114.881,"country":"CN","population":4345491,"region":"Hebei","is_capital":false},{"name":"Izmir","latitude":38.4127,"longitude":27.1384,"country":"TR","population":4320519,"region":"Aegean Region","is_capital":false},{"name":"Linfen","latitude":36.0812,"longitude":111.509,"country":"CN","population":4316610,"region":"Shanxi","is_capital":false},{"name":"Wenzhou","latitude":27.9991,"longitude":120.656,"country":"CN","population":4310000,"region":"Zhejiang","is_capital":false},{"name":"Monterrey","latitude":25.6667,"longitude":-100.3,"country":"MX","population":4295000,"region":"Nuevo León","is_capital":false},{"name":"Luzhou","latitude":28.8918,"longitude":105.441,"country":"CN","population":4291000,"region":"Sichuan","is_capital":false},{"name":"Jiangguanchi","latitude":34.0244,"longitude":113.82,"country":"CN","population":4289000,"region":"Henan","is_capital":false},{"name":"Neijiang","latitude":29.5872,"longitude":105.063,"country":"CN","population":4238000,"region":"Sichuan","is_capital":false},{"name":"Phoenix","latitude":33.5722,"longitude":-112.089,"country":"US","population":4219697,"region":"Arizona","is_capital":false},{"name":"Yanjiang","latitude":30.1256,"longitude":104.64,"country":"CN","population":4217000,"region":"Sichuan","is_capital":false},{"name":"Yiyang","latitude":28.5833,"longitude":112.333,"country":"CN","population":4174000,"region":"Hunan","is_capital":false},{"name":"Zhaoqing","latitude":23.047,"longitude":112.465,"country":"CN","population":4151700,"region":"Guangdong Province","is_capital":false},{"name":"Hengshui","latitude":37.7348,"longitude":115.686,"country":"CN","population":4150000,"region":"Hebei","is_capital":false},{"name":"Guigang","latitude":23.0961,"longitude":109.609,"country":"CN","population":4118808,"region":"Guangxi","is_capital":false},{"name":"Xiaoxita","latitude":30.7083,"longitude":111.28,"country":"CN","population":4115000,"region":"Hubei","is_capital":false},{"name":"Xiamen","latitude":24.4797,"longitude":118.082,"country":"CN","population":4110000,"region":"Fujian","is_capital":false},{"name":"Fuzhou","latitude":27.9814,"longitude":116.358,"country":"CN","population":4047200,"region":"Jiangxi","is_capital":false},{"name":"Amman","latitude":31.95,"longitude":35.9333,"country":"JO","population":4007526,"region":"Amman","is_capital":true},{"name":"Jeddah","latitude":21.5428,"longitude":39.1728,"country":"SA","population":3976000,"region":"Makkah Region","is_capital":false},{"name":"Sialkot City","latitude":32.5,"longitude":74.5333,"country":"PK","population":3893672,"region":"Punjab","is_capital":false},{"name":"Huizhou","latitude":23.1115,"longitude":114.415,"country":"CN","population":3875000,"region":"Guangdong Province","is_capital":false},{"name":"Qingyuan","latitude":23.6842,"longitude":113.051,"country":"CN","population":3874000,"region":"Guangdong Province","is_capital":false},{"name":"Zhuzhou","latitude":27.8407,"longitude":113.147,"country":"CN","population":3855609,"region":"Hunan","is_capital":false},{"name":"Wuhu","latitude":31.334,"longitude":118.362,"country":"CN","population":3842100,"region":"Anhui","is_capital":false},{"name":"Hechi","latitude":23.0965,"longitude":109.609,"country":"CN","population":3830000,"region":"Guangxi","is_capital":false},{"name":"Seattle","latitude":47.6211,"longitude":-122.324,"country":"US","population":3789215,"region":"Washington","is_capital":false},{"name":"Loudi","latitude":27.7378,"longitude":111.997,"country":"CN","population":3785627,"region":"Hunan","is_capital":false},{"name":"Binzhou","latitude":37.3806,"longitude":118.012,"country":"CN","population":3779200,"region":"Shandong","is_capital":false},{"name":"Liuzhou","latitude":24.3181,"longitude":109.407,"country":"CN","population":3758704,"region":"Guangxi","is_capital":false},{"name":"Yokohama","latitude":35.4333,"longitude":139.633,"country":"JP","population":3748781,"region":"N/A","is_capital":false},{"name":"Baojishi","latitude":34.3609,"longitude":107.175,"country":"CN","population":3738700,"region":"Shaanxi","is_capital":false},{"name":"Guang'an","latitude":30.4673,"longitude":106.634,"country":"CN","population":3723000,"region":"Sichuan","is_capital":false},{"name":"Hanzhong","latitude":33.0794,"longitude":107.026,"country":"CN","population":3700000,"region":"Shaanxi","is_capital":false},{"name":"Kabul","latitude":34.5328,"longitude":69.1658,"country":"AF","population":3678034,"region":"Kabul Province","is_capital":true},{"name":"Zaozhuang","latitude":34.8667,"longitude":117.55,"country":"CN","population":3650000,"region":"Shandong","is_capital":false},{"name":"Berlin","latitude":52.5167,"longitude":13.3833,"country":"DE","population":3644826,"region":"N/A","is_capital":true},{"name":"Deyang","latitude":31.1289,"longitude":104.395,"country":"CN","population":3636000,"region":"Sichuan","is_capital":false},{"name":"Lanzhou","latitude":36.0617,"longitude":103.832,"country":"CN","population":3616163,"region":"Gansu","is_capital":false},{"name":"Chengde","latitude":40.9739,"longitude":117.932,"country":"CN","population":3610000,"region":"Hebei","is_capital":false},{"name":"San Francisco","latitude":37.7562,"longitude":-122.443,"country":"US","population":3592294,"region":"California","is_capital":false},{"name":"Puyang","latitude":35.7639,"longitude":115.03,"country":"CN","population":3580000,"region":"Henan","is_capital":false},{"name":"Suining","latitude":30.5098,"longitude":105.574,"country":"CN","population":3556000,"region":"Sichuan","is_capital":false},{"name":"Jiaozuo","latitude":35.229,"longitude":113.23,"country":"CN","population":3540101,"region":"Henan","is_capital":false},{"name":"Bengbu","latitude":32.9354,"longitude":117.353,"country":"CN","population":3525000,"region":"Anhui","is_capital":false},{"name":"Montreal","latitude":45.5089,"longitude":-73.5617,"country":"CA","population":3519595,"region":"Quebec","is_capital":false},{"name":"Detroit","latitude":42.3834,"longitude":-83.1024,"country":"US","population":3506126,"region":"Michigan","is_capital":false},{"name":"Baicheng","latitude":23.901,"longitude":106.619,"country":"CN","population":3466758,"region":"Guangxi","is_capital":false},{"name":"Busan","latitude":35.1,"longitude":129.04,"country":"KR","population":3440484,"region":"N/A","is_capital":false},{"name":"Algiers","latitude":36.7764,"longitude":3.0586,"country":"DZ","population":3415811,"region":"Algiers","is_capital":true},{"name":"Qincheng","latitude":34.5809,"longitude":105.731,"country":"CN","population":3400000,"region":"Gansu","is_capital":false},{"name":"Taiyuan","latitude":37.8733,"longitude":112.543,"country":"CN","population":3398000,"region":"Shanxi","is_capital":false},{"name":"Lucknow","latitude":26.847,"longitude":80.947,"country":"IN","population":3382000,"region":"Uttar Pradesh","is_capital":false},{"name":"Chaoyang","latitude":41.5757,"longitude":120.449,"country":"CN","population":3370000,"region":"Liaoning","is_capital":false},{"name":"Hechi","latitude":24.6928,"longitude":108.085,"country":"CN","population":3369251,"region":"Guangxi","is_capital":false},{"name":"Leshan","latitude":29.5854,"longitude":103.757,"country":"CN","population":3364000,"region":"Sichuan","is_capital":false},{"name":"Yulinshi","latitude":38.2655,"longitude":109.739,"country":"CN","population":3328000,"region":"Shaanxi","is_capital":false},{"name":"Siping","latitude":43.1715,"longitude":124.364,"country":"CN","population":3300000,"region":"Jilin","is_capital":false},{"name":"Madrid","latitude":40.4189,"longitude":-3.6919,"country":"ES","population":3266126,"region":"Community of Madrid","is_capital":true},{"name":"Jinan","latitude":36.6667,"longitude":116.983,"country":"CN","population":3250000,"region":"Shandong","is_capital":false},{"name":"Shiyan","latitude":32.6351,"longitude":110.775,"country":"CN","population":3228000,"region":"Hubei","is_capital":false},{"name":"San Diego","latitude":32.8312,"longitude":-117.122,"country":"US","population":3220118,"region":"California","is_capital":false},{"name":"Faisalabad","latitude":31.418,"longitude":73.079,"country":"PK","population":3203846,"region":"Punjab","is_capital":false},{"name":"Santa Cruz","latitude":-17.7892,"longitude":-63.1975,"country":"BO","population":3151676,"region":"Santa Cruz","is_capital":false},{"name":"Bazhou","latitude":31.8576,"longitude":106.756,"country":"CN","population":3134000,"region":"Sichuan","is_capital":false},{"name":"Zhongshan","latitude":22.5333,"longitude":113.35,"country":"CN","population":3121275,"region":"Guangdong Province","is_capital":false},{"name":"Zhenjiang","latitude":32.2109,"longitude":119.455,"country":"CN","population":3113384,"region":"Jiangsu","is_capital":false},{"name":"Urumqi","latitude":43.825,"longitude":87.6,"country":"CN","population":3112559,"region":"Xinjiang","is_capital":false},{"name":"Tongliao","latitude":43.6172,"longitude":122.264,"country":"CN","population":3094600,"region":"Inner Mongolia","is_capital":false},{"name":"Heyuan","latitude":23.7503,"longitude":114.692,"country":"CN","population":3093900,"region":"Guangdong Province","is_capital":false},{"name":"Tongren","latitude":27.7233,"longitude":109.188,"country":"CN","population":3093204,"region":"Guizhou","is_capital":false},{"name":"Qinzhou","latitude":21.95,"longitude":108.617,"country":"CN","population":3079721,"region":"Guangxi","is_capital":false},{"name":"Jaipur","latitude":26.9167,"longitude":75.8667,"country":"IN","population":3073350,"region":"Rajasthan","is_capital":false},{"name":"Xinzhou","latitude":38.4178,"longitude":112.723,"country":"CN","population":3067501,"region":"Shanxi","is_capital":false},{"name":"Addis Ababa","latitude":9.0272,"longitude":38.7369,"country":"ET","population":3041002,"region":"Addis Ababa","is_capital":true},{"name":"Giza","latitude":29.987,"longitude":31.2118,"country":"EG","population":3021542,"region":"Giza","is_capital":false},{"name":"Meishan","latitude":30.0575,"longitude":103.838,"country":"CN","population":3020000,"region":"Sichuan","is_capital":false},{"name":"Brasilia","latitude":-15.7744,"longitude":-48.0773,"country":"BR","population":3015268,"region":"Federal District","is_capital":true},{"name":"Mashhad","latitude":36.3069,"longitude":59.6042,"country":"IR","population":3001184,"region":"Razavi Khorasan","is_capital":false},{"name":"Jinzhou","latitude":41.1144,"longitude":121.129,"country":"CN","population":3000000,"region":"Liaoning","is_capital":false},{"name":"Shaoguan","latitude":24.8011,"longitude":113.593,"country":"CN","population":2997600,"region":"Guangdong Province","is_capital":false},{"name":"Shanwei","latitude":22.7664,"longitude":115.333,"country":"CN","population":2990000,"region":"Guangdong Province","is_capital":false},{"name":"Minneapolis","latitude":44.9635,"longitude":-93.2678,"country":"US","population":2977172,"region":"Minnesota","is_capital":false},{"name":"Kyiv","latitude":50.45,"longitude":30.5236,"country":"UA","population":2967000,"region":"N/A","is_capital":true},{"name":"Sanaa","latitude":15.35,"longitude":44.2,"country":"YE","population":2957000,"region":"Amanat Al Asimah","is_capital":true},{"name":"Quezon City","latitude":14.6333,"longitude":121.033,"country":"PH","population":2936116,"region":"Metro Manila","is_capital":false},{"name":"Dingxi","latitude":35.5806,"longitude":104.626,"country":"CN","population":2930000,"region":"Gansu","is_capital":false},{"name":"Salvador","latitude":-12.9708,"longitude":-38.5108,"country":"BR","population":2921087,"region":"Bahia","is_capital":false},{"name":"Incheon","latitude":37.4639,"longitude":126.649,"country":"KR","population":2913024,"region":"N/A","is_capital":false},{"name":"Bursa","latitude":40.1833,"longitude":29.0667,"country":"TR","population":2901396,"region":"Marmara Region","is_capital":false},{"name":"Birmingham","latitude":52.48,"longitude":-1.9025,"country":"GB","population":2897303,"region":"England","is_capital":false},{"name":"Huzhou","latitude":30.8695,"longitude":120.096,"country":"CN","population":2893542,"region":"Zhejiang","is_capital":false},{"name":"Wuzhou","latitude":23.4833,"longitude":111.317,"country":"CN","population":2882200,"region":"Guangxi","is_capital":false},{"name":"Denver","latitude":39.7621,"longitude":-104.876,"country":"US","population":2876625,"region":"Colorado","is_capital":false},{"name":"Rome","latitude":41.8931,"longitude":12.4828,"country":"IT","population":2872800,"region":"Lazio","is_capital":true},{"name":"La Paz","latitude":-16.4942,"longitude":-68.1475,"country":"BO","population":2867504,"region":"La Paz","is_capital":true},{"name":"Pyongyang","latitude":39.03,"longitude":125.73,"country":"KP","population":2863000,"region":"N/A","is_capital":true},{"name":"Kano","latitude":12,"longitude":8.5167,"country":"NG","population":2828861,"region":"Kano State","is_capital":false},{"name":"Taichung","latitude":24.15,"longitude":120.667,"country":"TW","population":2803894,"region":"N/A","is_capital":false},{"name":"Zigong","latitude":29.3498,"longitude":104.765,"country":"CN","population":2800000,"region":"Sichuan","is_capital":false},{"name":"Mudanjiang","latitude":44.5861,"longitude":129.6,"country":"CN","population":2790000,"region":"Heilongjiang","is_capital":false},{"name":"Huludao","latitude":40.7094,"longitude":120.838,"country":"CN","population":2787000,"region":"Liaoning","is_capital":false},{"name":"Kaohsiung","latitude":22.6167,"longitude":120.3,"country":"TW","population":2773533,"region":"N/A","is_capital":false},{"name":"Xiangtan","latitude":27.8431,"longitude":112.923,"country":"CN","population":2748552,"region":"Hunan","is_capital":false},{"name":"Guayaquil","latitude":-2.1833,"longitude":-79.8833,"country":"EC","population":2723665,"region":"Guayas","is_capital":false},{"name":"Rizhao","latitude":35.4164,"longitude":119.433,"country":"CN","population":2720000,"region":"Shandong","is_capital":false},{"name":"Manchester","latitude":53.4794,"longitude":-2.2453,"country":"GB","population":2705000,"region":"England","is_capital":false},{"name":"Cawnpore","latitude":26.4725,"longitude":80.3311,"country":"IN","population":2701324,"region":"Uttar Pradesh","is_capital":false},{"name":"Baotou","latitude":40.6562,"longitude":109.835,"country":"CN","population":2700000,"region":"Inner Mongolia","is_capital":false},{"name":"Taipei","latitude":25.0478,"longitude":121.532,"country":"TW","population":2684567,"region":"N/A","is_capital":true},{"name":"Longyan","latitude":25.0881,"longitude":117.024,"country":"CN","population":2640000,"region":"Fujian","is_capital":false},{"name":"Ibadan","latitude":7.3964,"longitude":3.9167,"country":"NG","population":2628000,"region":"Oyo State","is_capital":false},{"name":"Chaozhou","latitude":23.67,"longitude":116.63,"country":"CN","population":2620000,"region":"Guangdong Province","is_capital":false},{"name":"Antananarivo","latitude":-18.9386,"longitude":47.5214,"country":"MG","population":2610000,"region":"Analamanga","is_capital":true},{"name":"Weihai","latitude":37.5,"longitude":122.1,"country":"CN","population":2596753,"region":"Shandong","is_capital":false},{"name":"Chattogram","latitude":22.335,"longitude":91.8325,"country":"BD","population":2581643,"region":"Chattogram Division","is_capital":false},{"name":"Xuanzhou","latitude":30.9475,"longitude":118.752,"country":"CN","population":2580000,"region":"Anhui","is_capital":false},{"name":"Brooklyn","latitude":40.6501,"longitude":-73.9496,"country":"US","population":2559903,"region":"New York","is_capital":false},{"name":"Medellin","latitude":6.2447,"longitude":-75.5748,"country":"CO","population":2529403,"region":"Antioquia","is_capital":false},{"name":"Brisbane","latitude":-27.4678,"longitude":153.028,"country":"AU","population":2514184,"region":"Queensland","is_capital":false},{"name":"Baoshan","latitude":25.1211,"longitude":99.169,"country":"CN","population":2506491,"region":"Yunnan","is_capital":false},{"name":"Dubai","latitude":25.2697,"longitude":55.3094,"country":"AE","population":2502715,"region":"Dubai","is_capital":false},{"name":"Luohe","latitude":33.583,"longitude":114.011,"country":"CN","population":2500000,"region":"Henan","is_capital":false},{"name":"Mirzapur","latitude":25.15,"longitude":82.58,"country":"IN","population":2496970,"region":"Uttar Pradesh","is_capital":false},{"name":"Guangyuan","latitude":32.4353,"longitude":105.84,"country":"CN","population":2484122,"region":"Sichuan","is_capital":false},{"name":"Cali","latitude":3.44,"longitude":-76.5197,"country":"CO","population":2471474,"region":"Valle del Cauca","is_capital":false},{"name":"Daegu","latitude":35.8667,"longitude":128.6,"country":"KR","population":2461002,"region":"N/A","is_capital":false},{"name":"Fortaleza","latitude":-3.7275,"longitude":-38.5275,"country":"BR","population":2452185,"region":"Ceará","is_capital":false},{"name":"Guatemala City","latitude":14.6099,"longitude":-90.5252,"country":"GT","population":2450212,"region":"Guatemala Department","is_capital":true},{"name":"Yaounde","latitude":3.8578,"longitude":11.5181,"country":"CM","population":2440462,"region":"Centre","is_capital":true},{"name":"Jilin","latitude":43.85,"longitude":126.55,"country":"CN","population":2396000,"region":"Jilin","is_capital":false},{"name":"Bandung","latitude":-6.95,"longitude":107.567,"country":"ID","population":2394873,"region":"West Java","is_capital":false},{"name":"Bekasi","latitude":-6.2333,"longitude":107,"country":"ID","population":2381053,"region":"West Java","is_capital":false},{"name":"Jiamusi","latitude":46.8081,"longitude":130.365,"country":"CN","population":2360000,"region":"Heilongjiang","is_capital":false},{"name":"Yangjiang","latitude":21.8556,"longitude":111.963,"country":"CN","population":2357000,"region":"Guangdong Province","is_capital":false},{"name":"Accra","latitude":5.6037,"longitude":-0.187,"country":"GH","population":2291352,"region":"Greater Accra Region","is_capital":true},{"name":"Vancouver","latitude":49.25,"longitude":-123.1,"country":"CA","population":2264823,"region":"British Columbia","is_capital":false},{"name":"Tangerang","latitude":-6.1783,"longitude":106.632,"country":"ID","population":2237006,"region":"Banten","is_capital":false},{"name":"Konya","latitude":37.8714,"longitude":32.4847,"country":"TR","population":2232374,"region":"Central Anatolia Region","is_capital":false},{"name":"Queens","latitude":40.7498,"longitude":-73.7976,"country":"US","population":2230722,"region":"New York","is_capital":false},{"name":"Yingkou","latitude":40.6653,"longitude":122.23,"country":"CN","population":2220000,"region":"Liaoning","is_capital":false},{"name":"Medan","latitude":3.6667,"longitude":98.6667,"country":"ID","population":2210625,"region":"North Sumatra","is_capital":false},{"name":"Indore","latitude":22.7206,"longitude":75.8472,"country":"IN","population":2201927,"region":"Madhya Pradesh","is_capital":false},{"name":"Pingliang","latitude":35.5412,"longitude":106.682,"country":"CN","population":2190000,"region":"Gansu","is_capital":false},{"name":"Quzhou","latitude":28.9545,"longitude":118.876,"country":"CN","population":2185000,"region":"Zhejiang","is_capital":false},{"name":"Baku","latitude":40.3667,"longitude":49.8352,"country":"AZ","population":2181800,"region":"N/A","is_capital":true},{"name":"Gaoping","latitude":30.7804,"longitude":106.13,"country":"CN","population":2174000,"region":"Sichuan","is_capital":false},{"name":"Huaibei","latitude":33.9562,"longitude":116.789,"country":"CN","population":2158000,"region":"Anhui","is_capital":false},{"name":"Xining","latitude":36.6239,"longitude":101.779,"country":"CN","population":2154000,"region":"Qinghai","is_capital":false},{"name":"Yan'an","latitude":36.5952,"longitude":109.486,"country":"CN","population":2150000,"region":"Shaanxi","is_capital":false},{"name":"Havana","latitude":23.1367,"longitude":-82.3589,"country":"CU","population":2141652,"region":"Havana","is_capital":true},{"name":"Phnom Penh","latitude":11.5696,"longitude":104.921,"country":"KH","population":2129371,"region":"Phnom Penh","is_capital":true},{"name":"Fukuoka","latitude":33.5903,"longitude":130.402,"country":"JP","population":2128000,"region":"N/A","is_capital":false},{"name":"Mogadishu","latitude":2.0408,"longitude":45.3425,"country":"SO","population":2120000,"region":"Banaadir","is_capital":true},{"name":"Lishui","latitude":28.45,"longitude":119.917,"country":"CN","population":2116957,"region":"Zhejiang","is_capital":false},{"name":"Qingyang","latitude":24.8141,"longitude":118.579,"country":"CN","population":2111000,"region":"Fujian","is_capital":false},{"name":"Riverside","latitude":33.9381,"longitude":-117.395,"country":"US","population":2107852,"region":"California","is_capital":false},{"name":"Baltimore","latitude":39.3051,"longitude":-76.6144,"country":"US","population":2106068,"region":"Maryland","is_capital":false},{"name":"Haiphong","latitude":20.8,"longitude":106.667,"country":"VN","population":2103500,"region":"N/A","is_capital":false},{"name":"Laibin","latitude":23.7333,"longitude":109.233,"country":"CN","population":2099711,"region":"Guangxi","is_capital":false},{"name":"Rawalpindi","latitude":33.6007,"longitude":73.0679,"country":"PK","population":2098231,"region":"Punjab","is_capital":false},{"name":"Kumasi","latitude":6.6833,"longitude":-1.6167,"country":"GH","population":2069350,"region":"Ashanti Region","is_capital":false},{"name":"Vadodara","latitude":22.3,"longitude":73.2,"country":"IN","population":2065771,"region":"Gujarat","is_capital":false},{"name":"Perth","latitude":-31.9522,"longitude":115.859,"country":"AU","population":2059484,"region":"Western Australia","is_capital":false},{"name":"Puning","latitude":23.2993,"longitude":116.159,"country":"CN","population":2055552,"region":"Guangdong Province","is_capital":false},{"name":"San Antonio","latitude":29.4658,"longitude":-98.5253,"country":"US","population":2049293,"region":"Texas","is_capital":false},{"name":"Haikou","latitude":20.02,"longitude":110.32,"country":"CN","population":2046189,"region":"Hainan Province","is_capital":false},{"name":"Vishakhapatnam","latitude":17.7333,"longitude":83.3167,"country":"IN","population":2035922,"region":"Andhra Pradesh","is_capital":false},{"name":"Gaziantep","latitude":37.0667,"longitude":37.3833,"country":"TR","population":2028563,"region":"N/A","is_capital":false},{"name":"Minsk","latitude":53.9022,"longitude":27.5618,"country":"BY","population":2020600,"region":"N/A","is_capital":true},{"name":"Bamako","latitude":12.6458,"longitude":-7.9922,"country":"ML","population":2009109,"region":"N/A","is_capital":true},{"name":"Pingxiang","latitude":27.6333,"longitude":113.85,"country":"CN","population":2001027,"region":"Jiangxi","is_capital":false},{"name":"Chongzuo","latitude":22.4167,"longitude":107.367,"country":"CN","population":1994285,"region":"Guangxi","is_capital":false},{"name":"Sanliurfa","latitude":37.1583,"longitude":38.7917,"country":"TR","population":1985753,"region":"N/A","is_capital":false},{"name":"Kananga","latitude":-5.897,"longitude":22.4488,"country":"CD","population":1971704,"region":"Central Kasai","is_capital":false},{"name":"Peshawar","latitude":34,"longitude":71.5,"country":"PK","population":1970042,"region":"Khyber Pakhtunkhwa","is_capital":false},{"name":"Sapporo","latitude":43.0621,"longitude":141.354,"country":"JP","population":1958756,"region":"Ishikari Subprefecture","is_capital":false},{"name":"Jixi","latitude":45.2937,"longitude":130.965,"country":"CN","population":1950000,"region":"Heilongjiang","is_capital":false},{"name":"Caracas","latitude":10.5,"longitude":-66.9333,"country":"VE","population":1943901,"region":"Capital District","is_capital":true},{"name":"Fuxin","latitude":42.0127,"longitude":121.649,"country":"CN","population":1930000,"region":"Liaoning","is_capital":false},{"name":"Leeds","latitude":53.7997,"longitude":-1.5492,"country":"GB","population":1901934,"region":"England","is_capital":false},{"name":"Sacramento","latitude":38.5667,"longitude":-121.468,"country":"US","population":1898019,"region":"California","is_capital":false},{"name":"Blantyre","latitude":-15.7861,"longitude":35.0058,"country":"MW","population":1895973,"region":"Blantyre","is_capital":false},{"name":"Tainan","latitude":22.9833,"longitude":120.183,"country":"TW","population":1883831,"region":"N/A","is_capital":false},{"name":"Bucharest","latitude":44.4,"longitude":26.0833,"country":"RO","population":1883425,"region":"N/A","is_capital":true},{"name":"Bhopal","latitude":23.25,"longitude":77.4167,"country":"IN","population":1883381,"region":"Madhya Pradesh","is_capital":false},{"name":"Curitiba","latitude":-25.4297,"longitude":-49.2719,"country":"BR","population":1879355,"region":"Paraná","is_capital":false},{"name":"Xiping","latitude":40.08,"longitude":113.3,"country":"CN","population":1873000,"region":"Shanxi","is_capital":false},{"name":"Asuncion","latitude":-25.3,"longitude":-57.6333,"country":"PY","population":1870000,"region":"Distrito Capital","is_capital":true},{"name":"Saidu Sharif","latitude":34.75,"longitude":72.3572,"country":"PK","population":1860310,"region":"Khyber Pakhtunkhwa","is_capital":false},{"name":"Vienna","latitude":48.2083,"longitude":16.3731,"country":"AT","population":1840573,"region":"N/A","is_capital":true},{"name":"Aleppo","latitude":36.2,"longitude":37.15,"country":"SY","population":1834093,"region":"N/A","is_capital":false},{"name":"Meru","latitude":0.05,"longitude":37.65,"country":"KE","population":1833000,"region":"Meru County","is_capital":false},{"name":"Brazzaville","latitude":-4.2667,"longitude":15.2833,"country":"CG","population":1827000,"region":"Brazzaville","is_capital":true},{"name":"Orlando","latitude":28.4772,"longitude":-81.3369,"country":"US","population":1822394,"region":"Florida","is_capital":false},{"name":"Mersin","latitude":36.8,"longitude":34.6167,"country":"TR","population":1814468,"region":"Mediterranean Region","is_capital":false},{"name":"Almaty","latitude":43.25,"longitude":76.9,"country":"KZ","population":1806833,"region":"N/A","is_capital":false},{"name":"Barranquilla","latitude":10.96,"longitude":-74.8,"country":"CO","population":1798000,"region":"Atlántico","is_capital":false},{"name":"Warsaw","latitude":52.2167,"longitude":21.0333,"country":"PL","population":1790658,"region":"Masovian Voivodeship","is_capital":true},{"name":"Shengli","latitude":37.45,"longitude":118.467,"country":"CN","population":1790000,"region":"Shandong","is_capital":false},{"name":"Lubumbashi","latitude":-11.6697,"longitude":27.4581,"country":"CD","population":1786397,"region":"Haut-Katanga","is_capital":false},{"name":"Damascus","latitude":33.5131,"longitude":36.2919,"country":"SY","population":1754000,"region":"Damascus Governorate","is_capital":true},{"name":"Shangqiu","latitude":34.4504,"longitude":115.65,"country":"CN","population":1753000,"region":"Henan","is_capital":false},{"name":"Budapest","latitude":47.4983,"longitude":19.0408,"country":"HU","population":1752286,"region":"Central Hungary","is_capital":true},{"name":"Heihe","latitude":50.2458,"longitude":127.489,"country":"CN","population":1750000,"region":"Heilongjiang","is_capital":false},{"name":"Lusaka","latitude":-15.4167,"longitude":28.2833,"country":"ZM","population":1742979,"region":"Lusaka Province","is_capital":true},{"name":"Diyarbakir","latitude":37.9108,"longitude":40.2367,"country":"TR","population":1732396,"region":"N/A","is_capital":false},{"name":"Chinchvad","latitude":18.6278,"longitude":73.8131,"country":"IN","population":1729320,"region":"Maharashtra","is_capital":false},{"name":"Shuozhou","latitude":39.3408,"longitude":112.429,"country":"CN","population":1714857,"region":"Shanxi","is_capital":false},{"name":"Vitoria","latitude":-20.324,"longitude":-40.366,"country":"BR","population":1704000,"region":"Espírito Santo","is_capital":false},{"name":"Pittsburgh","latitude":40.4396,"longitude":-79.9762,"country":"US","population":1703266,"region":"Pennsylvania","is_capital":false},{"name":"Mecca","latitude":21.4225,"longitude":39.8261,"country":"SA","population":1700000,"region":"Makkah Region","is_capital":false},{"name":"Patna","latitude":25.61,"longitude":85.1414,"country":"IN","population":1684222,"region":"Bihar","is_capital":false},{"name":"Sanzhou","latitude":30.82,"longitude":108.4,"country":"CN","population":1680000,"region":"Chongqing","is_capital":false},{"name":"Conakry","latitude":9.5092,"longitude":-13.7122,"country":"GN","population":1667864,"region":"N/A","is_capital":true},{"name":"Kampala","latitude":0.3136,"longitude":32.5811,"country":"UG","population":1659600,"region":"Central Region","is_capital":true},{"name":"Ecatepec","latitude":19.6097,"longitude":-99.06,"country":"MX","population":1656107,"region":"State of Mexico","is_capital":false},{"name":"Makassar","latitude":-5.1331,"longitude":119.414,"country":"ID","population":1651146,"region":"South Sulawesi","is_capital":false},{"name":"Ludhiana","latitude":30.9083,"longitude":75.8486,"country":"IN","population":1649000,"region":"Punjab","is_capital":false},{"name":"Depok","latitude":-6.394,"longitude":106.823,"country":"ID","population":1631951,"region":"West Java","is_capital":false},{"name":"Rabat","latitude":34.0253,"longitude":-6.8361,"country":"MA","population":1628000,"region":"Rabat-Salé-Kénitra","is_capital":true},{"name":"Ouagadougou","latitude":12.3572,"longitude":-1.5353,"country":"BF","population":1626950,"region":"Centre","is_capital":true},{"name":"Semarang","latitude":-6.9667,"longitude":110.417,"country":"ID","population":1621384,"region":"Central Java","is_capital":false},{"name":"Yinchuan","latitude":38.4795,"longitude":106.225,"country":"CN","population":1616000,"region":"Ningxia","is_capital":false},{"name":"Multan","latitude":30.1978,"longitude":71.4711,"country":"PK","population":1606481,"region":"Punjab","is_capital":false},{"name":"Caloocan City","latitude":14.65,"longitude":120.967,"country":"PH","population":1583978,"region":"Metro Manila","is_capital":false},{"name":"Puebla","latitude":19.0333,"longitude":-98.1833,"country":"MX","population":1576259,"region":"Puebla","is_capital":false},{"name":"Madurai","latitude":9.9197,"longitude":78.1194,"country":"IN","population":1561129,"region":"Tamil Nadu","is_capital":false},{"name":"Jamshedpur","latitude":22.8,"longitude":86.1833,"country":"IN","population":1558000,"region":"Jharkhand","is_capital":false},{"name":"Recife","latitude":-8.0539,"longitude":-34.8808,"country":"BR","population":1555039,"region":"Pernambuco","is_capital":false},{"name":"Santiago","latitude":19.5,"longitude":-70.67,"country":"DO","population":1550753,"region":"Santiago","is_capital":false},{"name":"Beihai","latitude":21.4667,"longitude":109.1,"country":"CN","population":1539251,"region":"Guangxi","is_capital":false},{"name":"Shuangyashan","latitude":46.6388,"longitude":131.154,"country":"CN","population":1530000,"region":"Heilongjiang","is_capital":false},{"name":"Kobe","latitude":34.6913,"longitude":135.183,"country":"JP","population":1522944,"region":"N/A","is_capital":false},{"name":"Charlotte","latitude":35.208,"longitude":-80.8304,"country":"US","population":1512923,"region":"North Carolina","is_capital":false},{"name":"Yucheng","latitude":29.9888,"longitude":103.001,"country":"CN","population":1512000,"region":"Sichuan","is_capital":false},{"name":"Changshu","latitude":31.65,"longitude":120.733,"country":"CN","population":1510100,"region":"Jiangsu","is_capital":false},{"name":"Ximeicun","latitude":24.9633,"longitude":118.381,"country":"CN","population":1508000,"region":"Fujian","is_capital":false},{"name":"Jianguang","latitude":28.1958,"longitude":115.783,"country":"CN","population":1507402,"region":"Jiangxi","is_capital":false},{"name":"Gwangju","latitude":35.1667,"longitude":126.917,"country":"KR","population":1501557,"region":"N/A","is_capital":false},{"name":"Guiping","latitude":23.4,"longitude":110.083,"country":"CN","population":1496904,"region":"Guangxi","is_capital":false},{"name":"Nasik","latitude":20,"longitude":73.7833,"country":"IN","population":1486053,"region":"Maharashtra","is_capital":false},{"name":"Porto Alegre","latitude":-30.0328,"longitude":-51.23,"country":"BR","population":1484941,"region":"Rio Grande do Sul","is_capital":false},{"name":"Valencia","latitude":10.1667,"longitude":-68,"country":"VE","population":1484430,"region":"Carabobo State","is_capital":false},{"name":"Virginia Beach","latitude":36.7335,"longitude":-76.0435,"country":"US","population":1478868,"region":"Virginia","is_capital":false},{"name":"Daejeon","latitude":36.351,"longitude":127.385,"country":"KR","population":1475221,"region":"N/A","is_capital":false},{"name":"Munich","latitude":48.1372,"longitude":11.5755,"country":"DE","population":1471508,"region":"Bavaria","is_capital":false},{"name":"Yekaterinburg","latitude":56.8356,"longitude":60.6128,"country":"RU","population":1468833,"region":"Sverdlovsk Oblast","is_capital":false},{"name":"Auckland","latitude":-36.85,"longitude":174.783,"country":"NZ","population":1467800,"region":"Auckland","is_capital":false},{"name":"Shiraz","latitude":29.61,"longitude":52.5425,"country":"IR","population":1460665,"region":"Fars Province","is_capital":false},{"name":"Leon De Los Aldama","latitude":21.1167,"longitude":-101.683,"country":"MX","population":1454793,"region":"Guanajuato","is_capital":false},{"name":"Palembang","latitude":-2.9833,"longitude":104.764,"country":"ID","population":1452456,"region":"South Sumatra","is_capital":false},{"name":"Kharkiv","latitude":50,"longitude":36.2292,"country":"UA","population":1446107,"region":"Kharkiv Oblast","is_capital":false},{"name":"Kawanakajima","latitude":35.53,"longitude":139.705,"country":"JP","population":1437266,"region":"N/A","is_capital":false},{"name":"Chizhou","latitude":30.6583,"longitude":117.485,"country":"CN","population":1430000,"region":"Anhui","is_capital":false},{"name":"Leizhou","latitude":20.9147,"longitude":110.081,"country":"CN","population":1427664,"region":"Guangdong Province","is_capital":false},{"name":"Guyuan","latitude":36.008,"longitude":106.278,"country":"CN","population":1426000,"region":"Ningxia","is_capital":false},{"name":"Rui'an","latitude":27.778,"longitude":120.653,"country":"CN","population":1424667,"region":"Zhejiang","is_capital":false},{"name":"Birstall","latitude":52.6736,"longitude":-1.12,"country":"GB","population":1424216,"region":"England","is_capital":false},{"name":"Muscat","latitude":23.6139,"longitude":58.5922,"country":"OM","population":1421409,"region":"Muscat Governorate","is_capital":true},{"name":"Hebi","latitude":35.7497,"longitude":114.289,"country":"CN","population":1419000,"region":"Henan","is_capital":false},{"name":"Jingling","latitude":30.6667,"longitude":113.167,"country":"CN","population":1418913,"region":"Hubei","is_capital":false},{"name":"Bronx","latitude":40.8501,"longitude":-73.8662,"country":"US","population":1418207,"region":"New York","is_capital":false},{"name":"The Hague","latitude":52.08,"longitude":4.27,"country":"NL","population":1406000,"region":"South Holland","is_capital":true},{"name":"Owerri","latitude":5.4833,"longitude":7.0333,"country":"NG","population":1401873,"region":"Imo State","is_capital":false},{"name":"Sharjah","latitude":25.3575,"longitude":55.3919,"country":"AE","population":1400000,"region":"Sharjah Emirate","is_capital":false},{"name":"Faridabad","latitude":28.4333,"longitude":77.3167,"country":"IN","population":1394000,"region":"Haryana","is_capital":false},{"name":"Goiania","latitude":-16.6789,"longitude":-49.2539,"country":"BR","population":1393575,"region":"Goiás","is_capital":false},{"name":"Belem","latitude":-1.4558,"longitude":-48.5039,"country":"BR","population":1393399,"region":"Pará","is_capital":false},{"name":"Kayseri","latitude":38.7333,"longitude":35.4833,"country":"TR","population":1389680,"region":"Central Anatolia Region","is_capital":false},{"name":"Yueqing","latitude":28.1188,"longitude":120.962,"country":"CN","population":1389332,"region":"Zhejiang","is_capital":false},{"name":"Belgrade","latitude":44.8167,"longitude":20.4667,"country":"RS","population":1378682,"region":"Central Serbia","is_capital":true},{"name":"Aurangabad","latitude":19.88,"longitude":75.32,"country":"IN","population":1371330,"region":"Maharashtra","is_capital":false},{"name":"Yutan","latitude":28.3147,"longitude":112.554,"country":"CN","population":1368117,"region":"Hunan","is_capital":false},{"name":"Wenling","latitude":28.3797,"longitude":121.372,"country":"CN","population":1366794,"region":"Zhejiang","is_capital":false},{"name":"Islamabad","latitude":33.6989,"longitude":73.0369,"country":"PK","population":1365000,"region":"Islamabad Capital Territory","is_capital":true},{"name":"Milan","latitude":45.4669,"longitude":9.19,"country":"IT","population":1351562,"region":"Lombardy","is_capital":false},{"name":"Adelaide","latitude":-34.9289,"longitude":138.601,"country":"AU","population":1345777,"region":"South Australia","is_capital":false},{"name":"Samsun","latitude":41.2867,"longitude":36.33,"country":"TR","population":1335716,"region":"Black Sea Region","is_capital":false},{"name":"Rajkot","latitude":22.2969,"longitude":70.7984,"country":"IN","population":1335397,"region":"Gujarat","is_capital":false},{"name":"Khulna","latitude":22.8167,"longitude":89.55,"country":"BD","population":1311100,"region":"Khulna Division","is_capital":false},{"name":"Mbuji-Mayi","latitude":-6.1209,"longitude":23.5967,"country":"CD","population":1295000,"region":"Kasai-Oriental","is_capital":false},{"name":"Haicheng","latitude":40.8523,"longitude":122.747,"country":"CN","population":1293877,"region":"Liaoning","is_capital":false},{"name":"Gaozhou","latitude":21.9392,"longitude":110.846,"country":"CN","population":1288665,"region":"Guangdong Province","is_capital":false},{"name":"Yingtan","latitude":28.2333,"longitude":117,"country":"CN","population":1288615,"region":"Jiangxi","is_capital":false},{"name":"Huaiyin","latitude":33.58,"longitude":119.03,"country":"CN","population":1264000,"region":"Jiangsu","is_capital":false},{"name":"Thane","latitude":19.18,"longitude":72.9633,"country":"IN","population":1261517,"region":"Maharashtra","is_capital":false},{"name":"Comayaguela","latitude":14.0833,"longitude":-87.2167,"country":"HN","population":1250000,"region":"Francisco Morazán","is_capital":false},{"name":"Dhanbad","latitude":23.7928,"longitude":86.435,"country":"IN","population":1246000,"region":"Jharkhand","is_capital":false},{"name":"Kazan","latitude":55.7908,"longitude":49.1144,"country":"RU","population":1243500,"region":"Tatarstan","is_capital":false},{"name":"Suwon","latitude":37.2858,"longitude":127.01,"country":"KR","population":1234300,"region":"N/A","is_capital":false},{"name":"Yiwu","latitude":29.3081,"longitude":120.07,"country":"CN","population":1234015,"region":"Zhejiang","is_capital":false},{"name":"Mandalay","latitude":21.9769,"longitude":96.0869,"country":"MM","population":1225546,"region":"Mandalay","is_capital":false},{"name":"Beidao","latitude":34.6,"longitude":105.92,"country":"CN","population":1225000,"region":"Gansu","is_capital":false},{"name":"Shuangshui","latitude":26.5944,"longitude":104.833,"country":"CN","population":1221000,"region":"Guizhou","is_capital":false},{"name":"Sevilla","latitude":37.3828,"longitude":-5.9731,"country":"ES","population":1212045,"region":"Andalusia","is_capital":false},{"name":"Vila Velha","latitude":3.2167,"longitude":-51.2167,"country":"BR","population":1209091,"region":"Amapá","is_capital":false},{"name":"Allahabad","latitude":25.455,"longitude":81.84,"country":"IN","population":1201000,"region":"Uttar Pradesh","is_capital":false},{"name":"Varanasi","latitude":25.3189,"longitude":83.0128,"country":"IN","population":1198491,"region":"Uttar Pradesh","is_capital":false},{"name":"Maiduguri","latitude":11.8333,"longitude":13.15,"country":"NG","population":1197497,"region":"Borno State","is_capital":false},{"name":"Maputo","latitude":-25.9153,"longitude":32.5764,"country":"MZ","population":1191613,"region":"N/A","is_capital":true},{"name":"Benin City","latitude":6.3176,"longitude":5.6145,"country":"NG","population":1190000,"region":"Edo State","is_capital":false},{"name":"Xinyu","latitude":27.795,"longitude":114.924,"country":"CN","population":1186700,"region":"Jiangxi","is_capital":false},{"name":"Ahvaz","latitude":31.3203,"longitude":48.6692,"country":"IR","population":1184788,"region":"Khuzestan Province","is_capital":false},{"name":"Dublin","latitude":53.3425,"longitude":-6.2658,"country":"IE","population":1173179,"region":"Leinster","is_capital":true},{"name":"Bandar Lampung","latitude":-5.4294,"longitude":105.262,"country":"ID","population":1166761,"region":"Lampung","is_capital":false},{"name":"Ulsan","latitude":35.55,"longitude":129.317,"country":"KR","population":1166033,"region":"N/A","is_capital":false},{"name":"Dingzhou","latitude":38.5158,"longitude":114.984,"country":"CN","population":1165182,"region":"Hebei","is_capital":false},{"name":"Campinas","latitude":-22.9009,"longitude":-47.0573,"country":"BR","population":1164098,"region":"São Paulo","is_capital":false},{"name":"Lianyuan","latitude":27.6961,"longitude":111.666,"country":"CN","population":1162928,"region":"Hunan","is_capital":false},{"name":"Rongcheng","latitude":29.8239,"longitude":112.902,"country":"CN","population":1162770,"region":"Hubei","is_capital":false},{"name":"Kaiyuan","latitude":36.0656,"longitude":113.815,"country":"CN","population":1160000,"region":"Henan","is_capital":false},{"name":"Dakar","latitude":14.7319,"longitude":-17.4572,"country":"SN","population":1146053,"region":"Dakar Region","is_capital":true},{"name":"Dadukou","latitude":26.5849,"longitude":101.715,"country":"CN","population":1144000,"region":"Sichuan","is_capital":false},{"name":"Quetta","latitude":30.192,"longitude":67.007,"country":"PK","population":1140000,"region":"Balochistan","is_capital":false},{"name":"Amritsar","latitude":31.6167,"longitude":74.85,"country":"IN","population":1132383,"region":"Punjab","is_capital":false},{"name":"Callao","latitude":-12.0611,"longitude":-77.1333,"country":"PE","population":1129854,"region":"Constitutional Province of Callao","is_capital":false},{"name":"Tegucigalpa","latitude":14.0942,"longitude":-87.2067,"country":"HN","population":1126534,"region":"Francisco Morazán","is_capital":true},{"name":"Ciudad Nezahualcoyotl","latitude":19.41,"longitude":-99.03,"country":"MX","population":1109363,"region":"State of Mexico","is_capital":false},{"name":"Bien Hoa","latitude":10.9575,"longitude":106.843,"country":"VN","population":1104000,"region":"Đồng Nai Province","is_capital":false},{"name":"Mexicali","latitude":32.6633,"longitude":-115.468,"country":"MX","population":1102342,"region":"Baja California","is_capital":false},{"name":"Gwalior","latitude":26.215,"longitude":78.1931,"country":"IN","population":1101981,"region":"Madhya Pradesh","is_capital":false},{"name":"Ankang","latitude":32.6877,"longitude":109.023,"country":"CN","population":1100000,"region":"Shaanxi","is_capital":false},{"name":"Ikare","latitude":7.5304,"longitude":5.76,"country":"NG","population":1099931,"region":"Ondo State","is_capital":false},{"name":"Salt Lake City","latitude":40.7777,"longitude":-111.931,"country":"US","population":1098526,"region":"Utah","is_capital":false},{"name":"Bhilai","latitude":21.2167,"longitude":81.4333,"country":"IN","population":1097000,"region":"Chhattisgarh","is_capital":false},{"name":"Yuyao","latitude":30.0372,"longitude":121.155,"country":"CN","population":1095000,"region":"Zhejiang","is_capital":false},{"name":"N'djamena","latitude":12.11,"longitude":15.05,"country":"TD","population":1092066,"region":"N/A","is_capital":true},{"name":"Copenhagen","latitude":55.6786,"longitude":12.5635,"country":"DK","population":1085000,"region":"Capital Region of Denmark","is_capital":true},{"name":"Haora","latitude":22.59,"longitude":88.31,"country":"IN","population":1077075,"region":"West Bengal","is_capital":false},{"name":"Yerevan","latitude":40.1814,"longitude":44.5144,"country":"AM","population":1075800,"region":"N/A","is_capital":true},{"name":"Ranchi","latitude":23.3556,"longitude":85.3347,"country":"IN","population":1073440,"region":"Jharkhand","is_capital":false},{"name":"Memphis","latitude":35.1046,"longitude":-89.9773,"country":"US","population":1066967,"region":"Tennessee","is_capital":false},{"name":"Goyang","latitude":37.6564,"longitude":126.835,"country":"KR","population":1061929,"region":"N/A","is_capital":false},{"name":"Bezwada","latitude":16.5167,"longitude":80.6167,"country":"IN","population":1048240,"region":"Andhra Pradesh","is_capital":false},{"name":"Voronezh","latitude":51.6717,"longitude":39.2106,"country":"RU","population":1047549,"region":"Voronezh Oblast","is_capital":false},{"name":"Changwon","latitude":35.2281,"longitude":128.681,"country":"KR","population":1046054,"region":"N/A","is_capital":false},{"name":"Zhongwei","latitude":37.5139,"longitude":105.188,"country":"CN","population":1046000,"region":"Ningxia","is_capital":false},{"name":"Shouguang","latitude":36.8833,"longitude":118.733,"country":"CN","population":1039205,"region":"Shandong","is_capital":false},{"name":"Bogor","latitude":-6.6,"longitude":106.8,"country":"ID","population":1030720,"region":"West Java","is_capital":false},{"name":"Chandigarh","latitude":30.7353,"longitude":76.7911,"country":"IN","population":1026459,"region":"N/A","is_capital":false},{"name":"Shubra Al Khaymah","latitude":30.1286,"longitude":31.2422,"country":"EG","population":1025569,"region":"Al Qalyubiya","is_capital":false},{"name":"Monrovia","latitude":6.3106,"longitude":-10.8047,"country":"LR","population":1021762,"region":"Montserrado County","is_capital":true},{"name":"Shymkent","latitude":42.3,"longitude":69.6,"country":"KZ","population":1018974,"region":"Shymkent","is_capital":false},{"name":"Volgograd","latitude":48.7,"longitude":44.4833,"country":"RU","population":1015586,"region":"Volgograd Oblast","is_capital":false},{"name":"Port-Au-Prince","latitude":18.5425,"longitude":-72.3386,"country":"HT","population":987310,"region":"West","is_capital":true},{"name":"Kathmandu","latitude":27.7167,"longitude":85.3667,"country":"NP","population":975453,"region":"Bagmati Province","is_capital":true},{"name":"Stockholm","latitude":59.3294,"longitude":18.0686,"country":"SE","population":972647,"region":"N/A","is_capital":true},{"name":"Asmara","latitude":15.3333,"longitude":38.9167,"country":"ER","population":963000,"region":"Maekel Region","is_capital":true},{"name":"Freetown","latitude":8.4833,"longitude":-13.2331,"country":"SL","population":951000,"region":"Western Area Urban","is_capital":true},{"name":"Jerusalem","latitude":31.7833,"longitude":35.2167,"country":"IL","population":919438,"region":"Jerusalem District","is_capital":true},{"name":"Panama City","latitude":9,"longitude":-79.5,"country":"PA","population":880691,"region":"Panamá Province","is_capital":true},{"name":"Lome","latitude":6.1319,"longitude":1.2228,"country":"TG","population":837437,"region":"Maritime Region","is_capital":true},{"name":"Libreville","latitude":0.3901,"longitude":9.4544,"country":"GA","population":797003,"region":"Estuaire Province","is_capital":true},{"name":"Zagreb","latitude":45.8,"longitude":15.95,"country":"HR","population":790017,"region":"N/A","is_capital":true},{"name":"Dushanbe","latitude":38.5731,"longitude":68.7864,"country":"TJ","population":780000,"region":"N/A","is_capital":true},{"name":"Cotonou","latitude":6.4,"longitude":2.52,"country":"BJ","population":762000,"region":"Ouémé Department","is_capital":true},{"name":"Vientiane","latitude":17.9667,"longitude":102.6,"country":"LA","population":760000,"region":"Vientiane Prefecture","is_capital":true},{"name":"Colombo","latitude":6.9167,"longitude":79.8333,"country":"LK","population":752993,"region":"Western Province","is_capital":true},{"name":"Kigali","latitude":-1.9536,"longitude":30.0606,"country":"RW","population":745261,"region":"Kigali City","is_capital":true},{"name":"Pretoria","latitude":-25.7464,"longitude":28.1881,"country":"ZA","population":741651,"region":"Gauteng","is_capital":true},{"name":"Bangui","latitude":4.3732,"longitude":18.5628,"country":"CF","population":734350,"region":"N/A","is_capital":true},{"name":"Winnipeg","latitude":49.8844,"longitude":-97.1464,"country":"CA","population":705244,"region":"Manitoba","is_capital":false},{"name":"Quebec City","latitude":46.8139,"longitude":-71.2081,"country":"CA","population":705103,"region":"Quebec","is_capital":false},{"name":"Riga","latitude":56.9475,"longitude":24.1069,"country":"LV","population":698529,"region":"N/A","is_capital":true},{"name":"Oslo","latitude":59.9111,"longitude":10.7528,"country":"NO","population":693494,"region":"N/A","is_capital":true},{"name":"Chisinau","latitude":47.0056,"longitude":28.8575,"country":"MD","population":685900,"region":"N/A","is_capital":true},{"name":"Athens","latitude":37.9794,"longitude":23.7161,"country":"GR","population":664046,"region":"Attica","is_capital":true},{"name":"Bujumbura","latitude":-3.3825,"longitude":29.3611,"country":"BI","population":658859,"region":"Bujumbura Mairie","is_capital":true},{"name":"Helsinki","latitude":60.1756,"longitude":24.9342,"country":"FI","population":642045,"region":"Mainland Finland","is_capital":true},{"name":"Skopje","latitude":41.9833,"longitude":21.4333,"country":"MK","population":640000,"region":"N/A","is_capital":true},{"name":"Kuwait City","latitude":29.375,"longitude":47.98,"country":"KW","population":637411,"region":"Capital Governorate","is_capital":true},{"name":"Kingston","latitude":17.9714,"longitude":-76.7931,"country":"JM","population":580000,"region":"N/A","is_capital":true},{"name":"Vilnius","latitude":54.6833,"longitude":25.2833,"country":"LT","population":574147,"region":"Vilnius County","is_capital":true},{"name":"San Salvador","latitude":13.6989,"longitude":-89.1914,"country":"SV","population":567698,"region":"San Salvador","is_capital":true},{"name":"Djibouti","latitude":11.595,"longitude":43.1481,"country":"DJ","population":562000,"region":"N/A","is_capital":true},{"name":"Lisbon","latitude":38.7452,"longitude":-9.1604,"country":"PT","population":506654,"region":"N/A","is_capital":true},{"name":"Kitchener","latitude":43.4186,"longitude":-80.4728,"country":"CA","population":470015,"region":"Ontario","is_capital":false},{"name":"Kitchener","latitude":43.4186,"longitude":-80.4728,"country":"CA","population":470015,"region":"Ontario","is_capital":false},{"name":"Tallinn","latitude":59.4372,"longitude":24.745,"country":"EE","population":434562,"region":"N/A","is_capital":true},{"name":"Cape Town","latitude":-33.925,"longitude":18.425,"country":"ZA","population":433688,"region":"N/A","is_capital":true},{"name":"Bratislava","latitude":48.1447,"longitude":17.1128,"country":"SK","population":429564,"region":"Region of Bratislava","is_capital":true},{"name":"Tirana","latitude":41.33,"longitude":19.82,"country":"AL","population":418495,"region":"Central Albania","is_capital":true},{"name":"Beirut","latitude":33.8869,"longitude":35.5131,"country":"LB","population":361366,"region":"Beirut Governorate","is_capital":true},{"name":"Yamoussoukro","latitude":6.8161,"longitude":-5.2742,"country":"CI","population":355573,"region":"Yamoussoukro","is_capital":true},{"name":"Victoria","latitude":48.4283,"longitude":-123.365,"country":"CA","population":335696,"region":"British Columbia","is_capital":false},{"name":"Maseru","latitude":-29.31,"longitude":27.48,"country":"LS","population":330790,"region":"Maseru District","is_capital":true},{"name":"Nicosia","latitude":35.1725,"longitude":33.365,"country":"CY","population":330000,"region":"N/A","is_capital":true},{"name":"Windhoek","latitude":-22.57,"longitude":17.0836,"country":"NA","population":322500,"region":"Khomas","is_capital":true},{"name":"Porto-Novo","latitude":6.4833,"longitude":2.6167,"country":"BJ","population":300000,"region":"Ouémé Department","is_capital":true},{"name":"San Jose","latitude":9.9333,"longitude":-84.0833,"country":"CR","population":288054,"region":"N/A","is_capital":true},{"name":"Ljubljana","latitude":46.05,"longitude":14.5167,"country":"SI","population":284355,"region":"N/A","is_capital":true},{"name":"Sarajevo","latitude":43.8667,"longitude":18.4167,"country":"BA","population":275524,"region":"Federation of Bosnia and Herzegovina","is_capital":true},{"name":"Nassau","latitude":25.0667,"longitude":-77.3333,"country":"BS","population":274400,"region":"N/A","is_capital":true},{"name":"Bloemfontein","latitude":-29.1,"longitude":26.2167,"country":"ZA","population":256185,"region":"Free State","is_capital":true},{"name":"Gaborone","latitude":-24.6569,"longitude":25.9086,"country":"BW","population":231626,"region":"N/A","is_capital":true},{"name":"Paramaribo","latitude":5.8667,"longitude":-55.1667,"country":"SR","population":223757,"region":"Paramaribo","is_capital":true},{"name":"Dili","latitude":-8.5586,"longitude":125.574,"country":"TL","population":222323,"region":"Dili","is_capital":true},{"name":"Pristina","latitude":42.6667,"longitude":21.1667,"country":"XK","population":204725,"region":"N/A","is_capital":true},{"name":"Georgetown","latitude":6.7833,"longitude":-58.1667,"country":"GY","population":200500,"region":"Demerara-Mahaica","is_capital":true},{"name":"Malabo","latitude":3.7521,"longitude":8.7737,"country":"GQ","population":187302,"region":"Bioko Norte","is_capital":true},{"name":"Brussels","latitude":50.8467,"longitude":4.3517,"country":"BE","population":185103,"region":"Brussels-Capital","is_capital":true},{"name":"Male","latitude":4.175,"longitude":73.5083,"country":"MV","population":133019,"region":"N/A","is_capital":true},{"name":"Reykjavik","latitude":64.1475,"longitude":-21.935,"country":"IS","population":128793,"region":"N/A","is_capital":true},{"name":"Praia","latitude":14.9177,"longitude":-23.5092,"country":"CV","population":127832,"region":"N/A","is_capital":true},{"name":"Luxembourg","latitude":49.6106,"longitude":6.1328,"country":"LU","population":122273,"region":"N/A","is_capital":true},{"name":"Sri Jayewardenepura Kotte","latitude":6.9,"longitude":79.9164,"country":"LK","population":115826,"region":"Western Province","is_capital":true},{"name":"Bridgetown","latitude":13.0975,"longitude":-59.6167,"country":"BB","population":110000,"region":"N/A","is_capital":true},{"name":"Thimphu","latitude":27.4833,"longitude":89.6333,"country":"BT","population":104000,"region":"Thimphu District","is_capital":true},{"name":"Mbabane","latitude":-26.3167,"longitude":31.1333,"country":"SZ","population":90138,"region":"Hhohho Region","is_capital":true},{"name":"Honiara","latitude":-9.4333,"longitude":159.95,"country":"SB","population":84520,"region":"Honiara","is_capital":true},{"name":"Castries","latitude":14.0167,"longitude":-60.9833,"country":"LC","population":70000,"region":"Castries","is_capital":true},{"name":"Sao Tome","latitude":0.3333,"longitude":6.7333,"country":"ST","population":56166,"region":"N/A","is_capital":true},{"name":"Port-Vila","latitude":-17.75,"longitude":168.3,"country":"VU","population":51437,"region":"Shefa Province","is_capital":true},{"name":"Bandar Seri Begawan","latitude":4.9167,"longitude":114.917,"country":"BN","population":50000,"region":"N/A","is_capital":true},{"name":"Monaco","latitude":43.7396,"longitude":7.4069,"country":"MC","population":36371,"region":"Provence-Alpes-Côte d'Azur","is_capital":true},{"name":"Vaduz","latitude":47.1415,"longitude":9.5215,"country":"LI","population":36281,"region":"N/A","is_capital":true},{"name":"Banjul","latitude":13.4531,"longitude":-16.5775,"country":"GM","population":31356,"region":"N/A","is_capital":true},{"name":"Tarawa","latitude":1.3382,"longitude":173.018,"country":"KI","population":28802,"region":"Gilbert Islands","is_capital":true},{"name":"Victoria","latitude":-4.6236,"longitude":55.4544,"country":"SC","population":26450,"region":"N/A","is_capital":true},{"name":"Majuro","latitude":7.1167,"longitude":171.367,"country":"MH","population":25400,"region":"N/A","is_capital":true},{"name":"Nuku`Alofa","latitude":-21.1347,"longitude":-175.208,"country":"TO","population":24571,"region":"Tongatapu","is_capital":true},{"name":"Saint John's","latitude":17.1211,"longitude":-61.8447,"country":"AG","population":21926,"region":"Antigua","is_capital":true},{"name":"Belmopan","latitude":17.25,"longitude":-88.7675,"country":"BZ","population":17222,"region":"Cayo District","is_capital":true},{"name":"Roseau","latitude":15.3,"longitude":-61.3833,"country":"DM","population":16582,"region":"Saint George Parish","is_capital":true},{"name":"Basseterre","latitude":17.2983,"longitude":-62.7342,"country":"KN","population":13220,"region":"Saint George Basseterre","is_capital":true},{"name":"Pago Pago","latitude":-14.274,"longitude":-170.705,"country":"AS","population":12576,"region":"American Samoa","is_capital":true},{"name":"Valletta","latitude":35.8978,"longitude":14.5125,"country":"MT","population":6444,"region":"South Eastern Region","is_capital":true},{"name":"Palikir","latitude":6.9178,"longitude":158.185,"country":"FM","population":6227,"region":"Pohnpei","is_capital":true},{"name":"Funafuti","latitude":-8.5167,"longitude":179.217,"country":"TV","population":6025,"region":"N/A","is_capital":true},{"name":"Lobamba","latitude":-26.4167,"longitude":31.1667,"country":"SZ","population":5800,"region":"Hhohho Region","is_capital":true},{"name":"Saint George's","latitude":12.0444,"longitude":-61.7417,"country":"GD","population":4315,"region":"N/A","is_capital":true},{"name":"San Marino","latitude":43.932,"longitude":12.4484,"country":"SM","population":4040,"region":"N/A","is_capital":true}]